{
  "city": "佛山",
  "source": "douban",
  "decided_at": "2026-06-29T03:42:16.115Z",
  "agent": "cursor-agent",
  "decisions": [
    {
      "group_id": "9387b97d2387",
      "action": "match",
      "poi_id": "2984913764483185002",
      "poi_title": "琼花大剧院",
      "poi_address": "",
      "latitude": 23.032055,
      "longitude": 113.111508,
      "doubtful": false,
      "reason": "地址映射库命中：佛山 禅城区 琼花大剧院 祖庙路22号 → 琼花大剧院（来源 event:douban:37793069）",
      "search_keywords_tried": [
        "poi-address-cache"
      ],
      "event_uids": [
        "douban:37866202"
      ]
    },
    {
      "group_id": "2edd250b4a94",
      "action": "match",
      "poi_id": "16458810857050558908",
      "poi_title": "佛山大剧院",
      "poi_address": "",
      "latitude": 22.968953,
      "longitude": 113.115754,
      "doubtful": false,
      "reason": "地址映射库命中：佛山 顺德区 佛山大剧院 华康道1号 → 佛山大剧院（来源 event:douban:37817104）",
      "search_keywords_tried": [
        "poi-address-cache"
      ],
      "event_uids": [
        "douban:37783966"
      ]
    },
    {
      "group_id": "8f8112fc8fc2",
      "action": "match",
      "poi_id": "3685539010749727090",
      "poi_title": "ALSOLIVE",
      "poi_address": "",
      "latitude": 22.934095,
      "longitude": 113.222441,
      "doubtful": false,
      "reason": "地址映射库命中：佛山 顺德区 ALSOLIVE 怡和路6号C座2层 → ALSOLIVE（来源 event:douban:37807761）",
      "search_keywords_tried": [
        "poi-address-cache"
      ],
      "event_uids": [
        "douban:37815287"
      ]
    },
    {
      "group_id": "4c97b6507bbb",
      "action": "match",
      "poi_id": "17512055418411941906",
      "poi_title": "国际体育文化演艺中心",
      "poi_address": "广东省佛山市顺德区乐从镇新城裕和路95号-新城东地铁站D口步行50米",
      "latitude": 22.959266,
      "longitude": 113.14161,
      "doubtful": false,
      "reason": "郭富城演唱会场馆与裕和路95号佛山国际体育文化演艺中心完全一致",
      "search_keywords_tried": [
        "佛山国际体育文化演艺中心"
      ],
      "event_uids": [
        "douban:37863374"
      ]
    },
    {
      "group_id": "d6371be2d2dd",
      "action": "match",
      "poi_id": "5790492153388790392",
      "poi_title": "大洋时代影城(ICC商业中心店)",
      "poi_address": "广东省佛山市禅城区城门头路18号icc国际商业中心4楼",
      "latitude": 23.027398,
      "longitude": 113.109146,
      "doubtful": false,
      "reason": "脱口秀在ICC商业中心大洋时代影城1号厅举办，与城门头路18号4楼影城主体一致，好说喜剧为运营方",
      "search_keywords_tried": [
        "好说喜剧 大洋时代影城"
      ],
      "event_uids": [
        "douban:37890531"
      ]
    },
    {
      "group_id": "3a35f64b07a9",
      "action": "match",
      "poi_id": "16458810857050558908",
      "poi_title": "佛山大剧院",
      "poi_address": "广东省佛山市顺德区乐从镇华康道1号坊塔内",
      "latitude": 22.968953,
      "longitude": 113.115754,
      "doubtful": false,
      "reason": "佛山大剧院小剧场位于华康道1号坊塔内，与豆瓣地址一致，小剧场为同建筑内厅别",
      "search_keywords_tried": [
        "佛山大剧院"
      ],
      "event_uids": [
        "douban:37871641"
      ]
    }
  ]
}