{
  "city": "上海",
  "source": "douban",
  "updated_at": "2026-06-23T01:18:00.000Z",
  "agent": "cursor-composer",
  "decisions": [
    {
      "group_id": "8fbbf4637527",
      "event_uids": ["douban:37890201"],
      "action": "match",
      "search_keywords_tried": ["上海书城 福州路"],
      "poi_id": "14663959468759547965",
      "poi_title": "上海书城(福州路店)",
      "poi_address": "上海市黄浦区福州路465号世纪出版大厦",
      "latitude": 31.234,
      "longitude": 121.481,
      "confidence": "high",
      "doubtful": false,
      "reason": "上海书城(福州路店)位于福州路465号，与6F分享会地址一致"
    },
    {
      "group_id": "8ea0d79a2b12",
      "event_uids": ["douban:37892018"],
      "action": "match",
      "search_keywords_tried": ["博悦汇影城 BFC外滩金融中心"],
      "poi_id": "8686997844321446645",
      "poi_title": "博悦汇影城(BFC外滩金融中心店)",
      "poi_address": "上海市黄浦区中山东二路600号BFC外滩金融中心B1-NB136",
      "latitude": 31.227,
      "longitude": 121.492,
      "confidence": "high",
      "doubtful": false,
      "reason": "博悦汇影城(BFC外滩金融中心店)与免费观影地点一致"
    },
    {
      "group_id": "25cb840c465c",
      "event_uids": ["douban:37892275"],
      "action": "match",
      "search_keywords_tried": ["茑屋书店 上生新所"],
      "poi_id": "1292191340727521886",
      "poi_title": "茑屋书店(上生新所店)",
      "poi_address": "上海市长宁区延安西路1262号上生·新所7栋",
      "latitude": 31.210,
      "longitude": 121.425,
      "confidence": "high",
      "doubtful": false,
      "reason": "茑屋书店(上生新所店)位于延安西路1262号7号楼，与分享会地址一致"
    },
    {
      "group_id": "d2082745a968",
      "event_uids": ["douban:37891175"],
      "action": "match",
      "search_keywords_tried": ["福民会馆 静安"],
      "poi_id": "11412690939697110071",
      "poi_title": "福民会馆",
      "poi_address": "上海市静安区富民路197弄69号(近巨鹿路)",
      "latitude": 31.220,
      "longitude": 121.454,
      "confidence": "high",
      "doubtful": false,
      "reason": "福民会馆位于静安区，与旧物交换故事会场地一致"
    },
    {
      "group_id": "a45e0491e227",
      "event_uids": ["douban:37891643", "douban:37891651", "douban:37891660", "douban:37891778", "douban:37891785", "douban:37891795"],
      "action": "match",
      "search_keywords_tried": ["poi-address-cache"],
      "poi_id": "14252119467906121381",
      "poi_title": "嘉发大厦-A栋",
      "poi_address": "上海市静安区大田路129弄",
      "latitude": 31.23286,
      "longitude": 121.464008,
      "confidence": "high",
      "doubtful": false,
      "reason": "地址映射库命中：Popcorn Club 位于嘉发大厦A栋5D"
    },
    {
      "group_id": "c8348a11462f",
      "event_uids": ["douban:37891719"],
      "action": "match",
      "search_keywords_tried": ["poi-address-cache"],
      "poi_id": "4105257615610063886",
      "poi_title": "启示望远文创园",
      "poi_address": "上海市闵行区联明路555号",
      "latitude": 31.143743,
      "longitude": 121.345218,
      "confidence": "high",
      "doubtful": false,
      "reason": "地址映射库命中：联明路555号文创园5幢105"
    },
    {
      "group_id": "f0b6b159ec0c",
      "event_uids": ["douban:37891866"],
      "action": "match",
      "search_keywords_tried": ["凯旋路1205号2号楼"],
      "poi_id": "8052023244619468242",
      "poi_title": "inspirer灵感来了俱乐部",
      "poi_address": "上海市长宁区凯旋路1205号东风商务园区2号楼2楼N室",
      "latitude": 31.210,
      "longitude": 121.425,
      "confidence": "high",
      "doubtful": false,
      "reason": "inspirer灵感来了俱乐部位于凯旋路1205号2号楼2楼N室，与播客夜活动地址一致"
    },
    {
      "group_id": "cf7d3d8d67c5",
      "event_uids": ["douban:37612148"],
      "action": "match",
      "search_keywords_tried": ["poi-address-cache"],
      "poi_id": "6846764937704657944",
      "poi_title": "造梦盒子·专业家庭音乐剧院(天空万科广场店)",
      "poi_address": "上海市青浦区崧泽大道2229弄66号天空万科广场L3",
      "latitude": 31.177315,
      "longitude": 121.253521,
      "confidence": "high",
      "doubtful": false,
      "reason": "地址映射库命中：造梦盒子家庭音乐剧剧场"
    },
    {
      "group_id": "302ea4be6316",
      "event_uids": ["douban:37765213"],
      "action": "match",
      "search_keywords_tried": ["上海大剧院 中剧场"],
      "poi_id": "8626762173639255760",
      "poi_title": "上海大剧院中剧场",
      "poi_address": "上海市黄浦区人民大道300号大剧院内(近黄陂南路)",
      "latitude": 31.231,
      "longitude": 121.475,
      "confidence": "high",
      "doubtful": false,
      "reason": "上海大剧院中剧场与音乐会场地一致"
    },
    {
      "group_id": "cf0f51ba3193",
      "event_uids": ["douban:37705585"],
      "action": "match",
      "search_keywords_tried": ["poi-address-cache"],
      "poi_id": "16300850716391730890",
      "poi_title": "Galaxy Comedy银河喜剧(静安大悦城店)",
      "poi_address": "上海市静安区西藏北路166号静安大悦城北座4楼N404室",
      "latitude": 31.244024,
      "longitude": 121.471885,
      "confidence": "high",
      "doubtful": false,
      "reason": "地址映射库命中：银河喜剧静安大悦城店"
    },
    {
      "group_id": "a2e633bc8e4c",
      "event_uids": ["douban:37604500"],
      "action": "match",
      "search_keywords_tried": ["夭蛾剧场 大世界"],
      "poi_id": "11336519041191763021",
      "poi_title": "星空间129号·夭蛾剧场",
      "poi_address": "上海市黄浦区西藏南路1号大世界1号门4楼",
      "latitude": 31.227,
      "longitude": 121.484,
      "confidence": "high",
      "doubtful": false,
      "reason": "星空间129号·夭蛾剧场位于大世界4楼，与音乐剧演出场地一致"
    },
    {
      "group_id": "a8fb06333364",
      "event_uids": ["douban:37763104"],
      "action": "match",
      "search_keywords_tried": ["poi-address-cache"],
      "poi_id": "18300789276948473305",
      "poi_title": "青春无限乐团烛光音乐会(上海广场店)",
      "poi_address": "上海市黄浦区淮海中路138号上海广场2楼206A",
      "latitude": 31.225171,
      "longitude": 121.478115,
      "confidence": "high",
      "doubtful": false,
      "reason": "地址映射库命中：青春无限乐团烛光音乐会上海广场店"
    }
  ]
}
